[
  {
    "name": "Beat WAVE",
    "address": "東京都渋谷区円山町2-9",
    "latitude": null,
    "longitude": null,
    "area": "渋谷",
    "url": "https://happyhotel.jp/hotels/540063"
  },
  {
    "name": "サンレオン1・2【スタイリッシュグループ(おとぼけビーバー)】",
    "address": "東京都渋谷区円山町2-1",
    "latitude": null,
    "longitude": null,
    "area": "渋谷",
    "url": "https://happyhotel.jp/hotels/540040"
  },
  {
    "name": "ホテル サンロード",
    "address": "東京都渋谷区道玄坂2-12-1",
    "latitude": null,
    "longitude": null,
    "area": "渋谷",
    "url": "https://happyhotel.jp/hotels/25900781"
  },
  {
    "name": "HOTEL 03",
    "address": "東京都渋谷区円山町10-6",
    "latitude": null,
    "longitude": null,
    "area": "渋谷",
    "url": "https://happyhotel.jp/hotels/540072"
  },
  {
    "name": "HOTEL SULATA 渋谷道玄坂",
    "address": "東京都渋谷区円山町2-2",
    "latitude": null,
    "longitude": null,
    "area": "渋谷",
    "url": "https://happyhotel.jp/hotels/541364"
  },
  {
    "name": "ヴィラジュリア道玄坂",
    "address": "東京都渋谷区道玄坂2-27-8",
    "latitude": null,
    "longitude": null,
    "area": "渋谷",
    "url": "https://happyhotel.jp/hotels/540057"
  },
  {
    "name": "ホテル パリス 渋谷",
    "address": "東京都渋谷区道玄坂2-26-2",
    "latitude": null,
    "longitude": null,
    "area": "渋谷",
    "url": "https://happyhotel.jp/hotels/543408"
  },
  {
    "name": "HOTEL LOTUS 渋谷店（ホテル ロータス）【Best Delight Group】",
    "address": "東京都渋谷区道玄坂2-14-7",
    "latitude": null,
    "longitude": null,
    "area": "渋谷",
    "url": "https://happyhotel.jp/hotels/540046"
  },
  {
    "name": "HOTEL Festa",
    "address": "東京都渋谷区円山町1-11",
    "latitude": null,
    "longitude": null,
    "area": "渋谷",
    "url": "https://happyhotel.jp/hotels/540059"
  },
  {
    "name": "HOTEL SK PLAZA",
    "address": "東京都渋谷区道玄坂1-17-9",
    "latitude": null,
    "longitude": null,
    "area": "渋谷",
    "url": "https://happyhotel.jp/hotels/540039"
  },
  {
    "name": "ホテル ZERO",
    "address": "東京都渋谷区道玄坂2-28-7",
    "latitude": null,
    "longitude": null,
    "area": "渋谷",
    "url": "https://happyhotel.jp/hotels/5400059"
  },
  {
    "name": "LIRIO",
    "address": "東京都渋谷区円山町4-12",
    "latitude": null,
    "longitude": null,
    "area": "渋谷",
    "url": "https://happyhotel.jp/hotels/543363"
  },
  {
    "name": "HOTEL LUARA",
    "address": "東京都渋谷区円山町2-10",
    "latitude": null,
    "longitude": null,
    "area": "渋谷",
    "url": "https://happyhotel.jp/hotels/543348"
  },
  {
    "name": "ホテル ル・ペイ・ブラン",
    "address": "東京都渋谷区円山町2-8",
    "latitude": null,
    "longitude": null,
    "area": "渋谷",
    "url": "https://happyhotel.jp/hotels/540061"
  },
  {
    "name": "ホテル イフ 渋谷",
    "address": "東京都渋谷区道玄坂2-20-14",
    "latitude": null,
    "longitude": null,
    "area": "渋谷",
    "url": "https://happyhotel.jp/hotels/540048"
  },
  {
    "name": "OLD SWING MUSIC STYLE HOTEL",
    "address": "東京都渋谷区円山町2-9",
    "latitude": null,
    "longitude": null,
    "area": "渋谷",
    "url": "https://happyhotel.jp/hotels/540062"
  },
  {
    "name": "ホテル ZERO II",
    "address": "東京都渋谷区円山町7-2",
    "latitude": null,
    "longitude": null,
    "area": "渋谷",
    "url": "https://happyhotel.jp/hotels/543367"
  },
  {
    "name": "ホテル ココバリ 渋谷",
    "address": "東京都渋谷区道玄坂2-20-15",
    "latitude": null,
    "longitude": null,
    "area": "渋谷",
    "url": "https://happyhotel.jp/hotels/543397"
  },
  {
    "name": "Lios",
    "address": "東京都渋谷区円山町10-4",
    "latitude": null,
    "longitude": null,
    "area": "渋谷",
    "url": "https://happyhotel.jp/hotels/541320"
  },
  {
    "name": "ZERO MARUYAMA",
    "address": "東京都渋谷区円山町9-9",
    "latitude": null,
    "longitude": null,
    "area": "渋谷",
    "url": "https://happyhotel.jp/hotels/540071"
  },
  {
    "name": "ホテル エルメ 渋谷",
    "address": "東京都渋谷区道玄坂2-28-10",
    "latitude": null,
    "longitude": null,
    "area": "渋谷",
    "url": "https://happyhotel.jp/hotels/25900634"
  },
  {
    "name": "CORE",
    "address": "東京都渋谷区円山町7-3",
    "latitude": null,
    "longitude": null,
    "area": "渋谷",
    "url": "https://happyhotel.jp/hotels/543368"
  },
  {
    "name": "ホテル アモーレ 渋谷",
    "address": "東京都渋谷区道玄坂2-20-22",
    "latitude": null,
    "longitude": null,
    "area": "渋谷",
    "url": "https://happyhotel.jp/hotels/543418"
  },
  {
    "name": "ホテル Blanche",
    "address": "東京都渋谷区円山町2-22",
    "latitude": null,
    "longitude": null,
    "area": "渋谷",
    "url": "https://happyhotel.jp/hotels/543355"
  },
  {
    "name": "Hotel White City 23",
    "address": "東京都渋谷区道玄坂2-20-21",
    "latitude": null,
    "longitude": null,
    "area": "渋谷",
    "url": "https://happyhotel.jp/hotels/540049"
  },
  {
    "name": "ホテル エイジア 渋谷",
    "address": "東京都渋谷区道玄坂2-20-13",
    "latitude": null,
    "longitude": null,
    "area": "渋谷",
    "url": "https://happyhotel.jp/hotels/543396"
  },
  {
    "name": "HOTEL ZERO III（スリー）",
    "address": "東京都渋谷区円山町2-15",
    "latitude": null,
    "longitude": null,
    "area": "渋谷",
    "url": "https://happyhotel.jp/hotels/540065"
  },
  {
    "name": "ホテル エリアス渋谷",
    "address": "東京都渋谷区円山町1-14",
    "latitude": null,
    "longitude": null,
    "area": "渋谷",
    "url": "https://happyhotel.jp/hotels/543341"
  },
  {
    "name": "ホテル ZERO II’",
    "address": "東京都渋谷区円山町7-2",
    "latitude": null,
    "longitude": null,
    "area": "渋谷",
    "url": "https://happyhotel.jp/hotels/540068"
  },
  {
    "name": "ホテル オニキス 渋谷",
    "address": "東京都渋谷区道玄坂2-14-19",
    "latitude": null,
    "longitude": null,
    "area": "渋谷",
    "url": "https://happyhotel.jp/hotels/543392"
  },
  {
    "name": "PERRIER【PASHAグループホテルズ（旧JHTグループ）】",
    "address": "東京都新宿区歌舞伎町2-7-12",
    "latitude": null,
    "longitude": null,
    "area": "新宿",
    "url": "https://happyhotel.jp/hotels/540010"
  },
  {
    "name": "ホテルバリアンリゾート東新宿店",
    "address": "東京都新宿区歌舞伎町2-19-17",
    "latitude": null,
    "longitude": null,
    "area": "新宿",
    "url": "https://happyhotel.jp/hotels/543445"
  },
  {
    "name": "ホテルプティバリフォレスト新宿3丁目店",
    "address": "東京都新宿区新宿3-8-10",
    "latitude": null,
    "longitude": null,
    "area": "新宿",
    "url": "https://happyhotel.jp/hotels/25901162"
  },
  {
    "name": "J-MEX【PASHAグループホテルズ（旧JHTグループ）】",
    "address": "東京都新宿区歌舞伎町2-5-6",
    "latitude": null,
    "longitude": null,
    "area": "新宿",
    "url": "https://happyhotel.jp/hotels/540003"
  },
  {
    "name": "PASHA【PASHAグループホテルズ（旧JHTグループ）】",
    "address": "東京都新宿区歌舞伎町2-10-12",
    "latitude": null,
    "longitude": null,
    "area": "新宿",
    "url": "https://happyhotel.jp/hotels/25900644"
  },
  {
    "name": "D-WAVE【PASHAグループホテルズ（旧JHTグループ）】",
    "address": "東京都新宿区歌舞伎町2-8-6",
    "latitude": null,
    "longitude": null,
    "area": "新宿",
    "url": "https://happyhotel.jp/hotels/541363"
  },
  {
    "name": "ホテルバリアンリゾート新宿本店",
    "address": "東京都新宿区歌舞伎町2-1-11",
    "latitude": null,
    "longitude": null,
    "area": "新宿",
    "url": "https://happyhotel.jp/hotels/25900548"
  },
  {
    "name": "ホテルバリアンリゾート新宿アイランド店",
    "address": "東京都新宿区歌舞伎町2-22-10",
    "latitude": null,
    "longitude": null,
    "area": "新宿",
    "url": "https://happyhotel.jp/hotels/540015"
  },
  {
    "name": "晏 -AN- 【PASHAグループホテルズ（旧JHTグループ）】",
    "address": "東京都新宿区歌舞伎町2-7-5",
    "latitude": null,
    "longitude": null,
    "area": "新宿",
    "url": "https://happyhotel.jp/hotels/541321"
  },
  {
    "name": "ホテル LISTO",
    "address": "東京都新宿区歌舞伎町2-36-1",
    "latitude": null,
    "longitude": null,
    "area": "新宿",
    "url": "https://happyhotel.jp/hotels/541282"
  },
  {
    "name": "FORSION【PASHAグループホテルズ（旧JHTグループ）】",
    "address": "東京都新宿区歌舞伎町2-9-7",
    "latitude": null,
    "longitude": null,
    "area": "新宿",
    "url": "https://happyhotel.jp/hotels/540011"
  },
  {
    "name": "HOTEL カラフルP&A新宿",
    "address": "東京都新宿区歌舞伎町2-45-10",
    "latitude": null,
    "longitude": null,
    "area": "新宿",
    "url": "https://happyhotel.jp/hotels/25900745"
  },
  {
    "name": "ホテルバリアンリゾート新宿グランピング店",
    "address": "東京都新宿区歌舞伎町2-29-11",
    "latitude": null,
    "longitude": null,
    "area": "新宿",
    "url": "https://happyhotel.jp/hotels/25901179"
  },
  {
    "name": "ホテル ブレス 新宿",
    "address": "東京都新宿区歌舞伎町2-2-12",
    "latitude": null,
    "longitude": null,
    "area": "新宿",
    "url": "https://happyhotel.jp/hotels/543447"
  },
  {
    "name": "HOTEL THE HOTEL",
    "address": "東京都新宿区歌舞伎町2-12-10",
    "latitude": null,
    "longitude": null,
    "area": "新宿",
    "url": "https://happyhotel.jp/hotels/25901071"
  },
  {
    "name": "HOTEL LaPia",
    "address": "東京都新宿区歌舞伎町2-29-2",
    "latitude": null,
    "longitude": null,
    "area": "新宿",
    "url": "https://happyhotel.jp/hotels/543458"
  },
  {
    "name": "ホテルプティバリ東新宿店",
    "address": "東京都新宿区歌舞伎町2-5-1",
    "latitude": null,
    "longitude": null,
    "area": "新宿",
    "url": "https://happyhotel.jp/hotels/543481"
  },
  {
    "name": "HOTEL ATLAS",
    "address": "東京都新宿区歌舞伎町2-12-9",
    "latitude": null,
    "longitude": null,
    "area": "新宿",
    "url": "https://happyhotel.jp/hotels/25900733"
  },
  {
    "name": "新宿区歌舞伎町　HOTEL SERIO",
    "address": "東京都新宿区歌舞伎町2-15-13",
    "latitude": null,
    "longitude": null,
    "area": "新宿",
    "url": "https://happyhotel.jp/hotels/540013"
  },
  {
    "name": "HOTEL STELLATE",
    "address": "東京都新宿区歌舞伎町2-11-1",
    "latitude": null,
    "longitude": null,
    "area": "新宿",
    "url": "https://happyhotel.jp/hotels/541336"
  },
  {
    "name": "PASHA RESORT【PASHAグループホテルズ（旧JHTグループ）】",
    "address": "東京都新宿区歌舞伎町2-27-4",
    "latitude": null,
    "longitude": null,
    "area": "新宿",
    "url": "https://happyhotel.jp/hotels/25900953"
  },
  {
    "name": "オリオン",
    "address": "東京都新宿区歌舞伎町2-11-12",
    "latitude": null,
    "longitude": null,
    "area": "新宿",
    "url": "https://happyhotel.jp/hotels/543434"
  },
  {
    "name": "HOTEL PROUD",
    "address": "東京都新宿区歌舞伎町2-7-6",
    "latitude": null,
    "longitude": null,
    "area": "新宿",
    "url": "https://happyhotel.jp/hotels/540009"
  },
  {
    "name": "グレイ",
    "address": "東京都新宿区歌舞伎町2-12-12",
    "latitude": null,
    "longitude": null,
    "area": "新宿",
    "url": "https://happyhotel.jp/hotels/543437"
  },
  {
    "name": "ミント歌舞伎町",
    "address": "東京都新宿区歌舞伎町2-6-8",
    "latitude": null,
    "longitude": null,
    "area": "新宿",
    "url": "https://happyhotel.jp/hotels/540007"
  },
  {
    "name": "HOTEL W-BAGUS",
    "address": "東京都新宿区歌舞伎町2-13-1",
    "latitude": null,
    "longitude": null,
    "area": "新宿",
    "url": "https://happyhotel.jp/hotels/543440"
  },
  {
    "name": "ホテル 8",
    "address": "東京都新宿区歌舞伎町2-2-8",
    "latitude": null,
    "longitude": null,
    "area": "新宿",
    "url": "https://happyhotel.jp/hotels/543451"
  },
  {
    "name": "エクセレント",
    "address": "東京都新宿区歌舞伎町2-7-10",
    "latitude": null,
    "longitude": null,
    "area": "新宿",
    "url": "https://happyhotel.jp/hotels/543492"
  },
  {
    "name": "HOTEL W-ARAMIS",
    "address": "東京都新宿区歌舞伎町2-7-4",
    "latitude": null,
    "longitude": null,
    "area": "新宿",
    "url": "https://happyhotel.jp/hotels/543493"
  },
  {
    "name": "ホテル KABUKI",
    "address": "東京都新宿区歌舞伎町1-16-9",
    "latitude": null,
    "longitude": null,
    "area": "新宿",
    "url": "https://happyhotel.jp/hotels/25901192"
  },
  {
    "name": "PERRIER【PASHAグループホテルズ（旧JHTグループ）】",
    "address": "東京都新宿区歌舞伎町2-7-12",
    "latitude": null,
    "longitude": null,
    "area": "新大久保",
    "url": "https://happyhotel.jp/hotels/540010"
  },
  {
    "name": "ホテルバリアンリゾート東新宿店",
    "address": "東京都新宿区歌舞伎町2-19-17",
    "latitude": null,
    "longitude": null,
    "area": "新大久保",
    "url": "https://happyhotel.jp/hotels/543445"
  },
  {
    "name": "J-MEX【PASHAグループホテルズ（旧JHTグループ）】",
    "address": "東京都新宿区歌舞伎町2-5-6",
    "latitude": null,
    "longitude": null,
    "area": "新大久保",
    "url": "https://happyhotel.jp/hotels/540003"
  },
  {
    "name": "PASHA【PASHAグループホテルズ（旧JHTグループ）】",
    "address": "東京都新宿区歌舞伎町2-10-12",
    "latitude": null,
    "longitude": null,
    "area": "新大久保",
    "url": "https://happyhotel.jp/hotels/25900644"
  },
  {
    "name": "D-WAVE【PASHAグループホテルズ（旧JHTグループ）】",
    "address": "東京都新宿区歌舞伎町2-8-6",
    "latitude": null,
    "longitude": null,
    "area": "新大久保",
    "url": "https://happyhotel.jp/hotels/541363"
  },
  {
    "name": "ホテルバリアンリゾート新宿本店",
    "address": "東京都新宿区歌舞伎町2-1-11",
    "latitude": null,
    "longitude": null,
    "area": "新大久保",
    "url": "https://happyhotel.jp/hotels/25900548"
  },
  {
    "name": "ホテルバリアンリゾート新宿アイランド店",
    "address": "東京都新宿区歌舞伎町2-22-10",
    "latitude": null,
    "longitude": null,
    "area": "新大久保",
    "url": "https://happyhotel.jp/hotels/540015"
  },
  {
    "name": "晏 -AN- 【PASHAグループホテルズ（旧JHTグループ）】",
    "address": "東京都新宿区歌舞伎町2-7-5",
    "latitude": null,
    "longitude": null,
    "area": "新大久保",
    "url": "https://happyhotel.jp/hotels/541321"
  },
  {
    "name": "ホテル LISTO",
    "address": "東京都新宿区歌舞伎町2-36-1",
    "latitude": null,
    "longitude": null,
    "area": "新大久保",
    "url": "https://happyhotel.jp/hotels/541282"
  },
  {
    "name": "ホテルプティバリガーデン新大久保店",
    "address": "東京都新宿区百人町1-6-7",
    "latitude": null,
    "longitude": null,
    "area": "新大久保",
    "url": "https://happyhotel.jp/hotels/25901158"
  },
  {
    "name": "FORSION【PASHAグループホテルズ（旧JHTグループ）】",
    "address": "東京都新宿区歌舞伎町2-9-7",
    "latitude": null,
    "longitude": null,
    "area": "新大久保",
    "url": "https://happyhotel.jp/hotels/540011"
  },
  {
    "name": "HOTEL カラフルP&A新宿",
    "address": "東京都新宿区歌舞伎町2-45-10",
    "latitude": null,
    "longitude": null,
    "area": "新大久保",
    "url": "https://happyhotel.jp/hotels/25900745"
  },
  {
    "name": "ホテルバリアンリゾート新宿グランピング店",
    "address": "東京都新宿区歌舞伎町2-29-11",
    "latitude": null,
    "longitude": null,
    "area": "新大久保",
    "url": "https://happyhotel.jp/hotels/25901179"
  },
  {
    "name": "ホテル ブレス 新宿",
    "address": "東京都新宿区歌舞伎町2-2-12",
    "latitude": null,
    "longitude": null,
    "area": "新大久保",
    "url": "https://happyhotel.jp/hotels/543447"
  },
  {
    "name": "HOTEL THE HOTEL",
    "address": "東京都新宿区歌舞伎町2-12-10",
    "latitude": null,
    "longitude": null,
    "area": "新大久保",
    "url": "https://happyhotel.jp/hotels/25901071"
  },
  {
    "name": "HOTEL LaPia",
    "address": "東京都新宿区歌舞伎町2-29-2",
    "latitude": null,
    "longitude": null,
    "area": "新大久保",
    "url": "https://happyhotel.jp/hotels/543458"
  },
  {
    "name": "ホテルプティバリ東新宿店",
    "address": "東京都新宿区歌舞伎町2-5-1",
    "latitude": null,
    "longitude": null,
    "area": "新大久保",
    "url": "https://happyhotel.jp/hotels/543481"
  },
  {
    "name": "HOTEL ATLAS",
    "address": "東京都新宿区歌舞伎町2-12-9",
    "latitude": null,
    "longitude": null,
    "area": "新大久保",
    "url": "https://happyhotel.jp/hotels/25900733"
  },
  {
    "name": "新宿区歌舞伎町　HOTEL SERIO",
    "address": "東京都新宿区歌舞伎町2-15-13",
    "latitude": null,
    "longitude": null,
    "area": "新大久保",
    "url": "https://happyhotel.jp/hotels/540013"
  },
  {
    "name": "HOTEL STELLATE",
    "address": "東京都新宿区歌舞伎町2-11-1",
    "latitude": null,
    "longitude": null,
    "area": "新大久保",
    "url": "https://happyhotel.jp/hotels/541336"
  },
  {
    "name": "PASHA RESORT【PASHAグループホテルズ（旧JHTグループ）】",
    "address": "東京都新宿区歌舞伎町2-27-4",
    "latitude": null,
    "longitude": null,
    "area": "新大久保",
    "url": "https://happyhotel.jp/hotels/25900953"
  },
  {
    "name": "オリオン",
    "address": "東京都新宿区歌舞伎町2-11-12",
    "latitude": null,
    "longitude": null,
    "area": "新大久保",
    "url": "https://happyhotel.jp/hotels/543434"
  },
  {
    "name": "HOTEL PROUD",
    "address": "東京都新宿区歌舞伎町2-7-6",
    "latitude": null,
    "longitude": null,
    "area": "新大久保",
    "url": "https://happyhotel.jp/hotels/540009"
  },
  {
    "name": "グレイ",
    "address": "東京都新宿区歌舞伎町2-12-12",
    "latitude": null,
    "longitude": null,
    "area": "新大久保",
    "url": "https://happyhotel.jp/hotels/543437"
  },
  {
    "name": "ミント歌舞伎町",
    "address": "東京都新宿区歌舞伎町2-6-8",
    "latitude": null,
    "longitude": null,
    "area": "新大久保",
    "url": "https://happyhotel.jp/hotels/540007"
  },
  {
    "name": "HOTEL W-BAGUS",
    "address": "東京都新宿区歌舞伎町2-13-1",
    "latitude": null,
    "longitude": null,
    "area": "新大久保",
    "url": "https://happyhotel.jp/hotels/543440"
  },
  {
    "name": "ホテル 8",
    "address": "東京都新宿区歌舞伎町2-2-8",
    "latitude": null,
    "longitude": null,
    "area": "新大久保",
    "url": "https://happyhotel.jp/hotels/543451"
  },
  {
    "name": "エクセレント",
    "address": "東京都新宿区歌舞伎町2-7-10",
    "latitude": null,
    "longitude": null,
    "area": "新大久保",
    "url": "https://happyhotel.jp/hotels/543492"
  },
  {
    "name": "HOTEL W-ARAMIS",
    "address": "東京都新宿区歌舞伎町2-7-4",
    "latitude": null,
    "longitude": null,
    "area": "新大久保",
    "url": "https://happyhotel.jp/hotels/543493"
  },
  {
    "name": "ビーナス",
    "address": "東京都新宿区歌舞伎町2-33-8",
    "latitude": null,
    "longitude": null,
    "area": "新大久保",
    "url": "https://happyhotel.jp/hotels/540026"
  },
  {
    "name": "HOTEL SAVOY",
    "address": "東京都台東区根岸1-5-5",
    "latitude": null,
    "longitude": null,
    "area": "上野",
    "url": "https://happyhotel.jp/hotels/543609"
  },
  {
    "name": "SCHALL",
    "address": "東京都台東区根岸1-3-9",
    "latitude": null,
    "longitude": null,
    "area": "上野",
    "url": "https://happyhotel.jp/hotels/543603"
  },
  {
    "name": "PASHA GRAN【PASHAグループホテルズ（旧JHTグループ）】",
    "address": "東京都台東区上野2-12-14",
    "latitude": null,
    "longitude": null,
    "area": "上野",
    "url": "https://happyhotel.jp/hotels/25901183"
  },
  {
    "name": "EXE（エグゼ）鶯谷",
    "address": "東京都台東区根岸1-7-2",
    "latitude": null,
    "longitude": null,
    "area": "上野",
    "url": "https://happyhotel.jp/hotels/540112"
  },
  {
    "name": "ホテル SWEETS",
    "address": "東京都台東区上野2-10-2",
    "latitude": null,
    "longitude": null,
    "area": "上野",
    "url": "https://happyhotel.jp/hotels/25900774"
  },
  {
    "name": "ホテル バリバリ 鶯谷",
    "address": "東京都台東区根岸1-7-15",
    "latitude": null,
    "longitude": null,
    "area": "上野",
    "url": "https://happyhotel.jp/hotels/543620"
  },
  {
    "name": "ホテル PATIO",
    "address": "東京都文京区湯島3-32-9",
    "latitude": null,
    "longitude": null,
    "area": "上野",
    "url": "https://happyhotel.jp/hotels/540315"
  },
  {
    "name": "HOTEL EXE ANNEX",
    "address": "東京都台東区根岸1-6-3",
    "latitude": null,
    "longitude": null,
    "area": "上野",
    "url": "https://happyhotel.jp/hotels/540116"
  },
  {
    "name": "HOTEL Le Club 鶯谷駅前店",
    "address": "東京都台東区根岸1-7-12",
    "latitude": null,
    "longitude": null,
    "area": "上野",
    "url": "https://happyhotel.jp/hotels/543618"
  },
  {
    "name": "ホテル UNITED",
    "address": "東京都台東区池之端1-1-4",
    "latitude": null,
    "longitude": null,
    "area": "上野",
    "url": "https://happyhotel.jp/hotels/543673"
  },
  {
    "name": "ホテル プランタン",
    "address": "東京都台東区根岸1-7-5",
    "latitude": null,
    "longitude": null,
    "area": "上野",
    "url": "https://happyhotel.jp/hotels/540113"
  },
  {
    "name": "サンモリッツ",
    "address": "東京都台東区根岸1-3-15",
    "latitude": null,
    "longitude": null,
    "area": "上野",
    "url": "https://happyhotel.jp/hotels/543602"
  },
  {
    "name": "Asian P-Door",
    "address": "東京都台東区根岸1-5-22",
    "latitude": null,
    "longitude": null,
    "area": "上野",
    "url": "https://happyhotel.jp/hotels/540114"
  },
  {
    "name": "PRINCESS1世",
    "address": "東京都文京区湯島3-47-8",
    "latitude": null,
    "longitude": null,
    "area": "上野",
    "url": "https://happyhotel.jp/hotels/543827"
  },
  {
    "name": "サンモリッツテラ",
    "address": "東京都台東区根岸1-7-1",
    "latitude": null,
    "longitude": null,
    "area": "上野",
    "url": "https://happyhotel.jp/hotels/543617"
  },
  {
    "name": "ホテル シック",
    "address": "東京都台東区上野6-9-21",
    "latitude": null,
    "longitude": null,
    "area": "上野",
    "url": "https://happyhotel.jp/hotels/543653"
  },
  {
    "name": "ホテル ダイヤモンド",
    "address": "東京都台東区池之端1-1-5",
    "latitude": null,
    "longitude": null,
    "area": "上野",
    "url": "https://happyhotel.jp/hotels/543674"
  },
  {
    "name": "HOTEL SERA APiO",
    "address": "東京都台東区根岸1-5-23",
    "latitude": null,
    "longitude": null,
    "area": "上野",
    "url": "https://happyhotel.jp/hotels/540111"
  },
  {
    "name": "アムール",
    "address": "東京都台東区根岸1-2-9入谷入口から車で2分鶯谷駅から徒歩2",
    "latitude": null,
    "longitude": null,
    "area": "上野",
    "url": "https://happyhotel.jp/hotels/543597"
  },
  {
    "name": "ホテル 苺",
    "address": "東京都台東区根岸1-2-7入谷入口から車で2分鶯谷駅から徒歩2",
    "latitude": null,
    "longitude": null,
    "area": "上野",
    "url": "https://happyhotel.jp/hotels/543595"
  },
  {
    "name": "エレガンス",
    "address": "東京都台東区池之端1-2-27上野入口から車で2分湯島駅から徒歩4",
    "latitude": null,
    "longitude": null,
    "area": "上野",
    "url": "https://happyhotel.jp/hotels/543675"
  },
  {
    "name": "エレガント　アネックス",
    "address": "東京都台東区上野6-8-5上野入口から車で2分上野御徒町駅から徒歩3",
    "latitude": null,
    "longitude": null,
    "area": "上野",
    "url": "https://happyhotel.jp/hotels/540144"
  },
  {
    "name": "ホテル ENJU 本館",
    "address": "東京都台東区根岸1-5-3入谷入口から車で2分鶯谷駅から徒歩1",
    "latitude": null,
    "longitude": null,
    "area": "上野",
    "url": "https://happyhotel.jp/hotels/543608"
  },
  {
    "name": "かつら",
    "address": "東京都台東区根岸1-3-11入谷入口から車で2分鶯谷駅から徒歩2",
    "latitude": null,
    "longitude": null,
    "area": "上野",
    "url": "https://happyhotel.jp/hotels/543599"
  },
  {
    "name": "山王",
    "address": "東京都台東区根岸1-3-15入谷入口から車で2分鶯谷駅から徒歩2",
    "latitude": null,
    "longitude": null,
    "area": "上野",
    "url": "https://happyhotel.jp/hotels/543601"
  },
  {
    "name": "サンモリッツエコ",
    "address": "東京都台東区根岸1-3-12入谷入口から車で2分鶯谷駅から徒歩3",
    "latitude": null,
    "longitude": null,
    "area": "上野",
    "url": "https://happyhotel.jp/hotels/543600"
  },
  {
    "name": "末広本館",
    "address": "東京都台東区根岸1-2-6入谷入口から車で2分鶯谷駅から徒歩2",
    "latitude": null,
    "longitude": null,
    "area": "上野",
    "url": "https://happyhotel.jp/hotels/543594"
  },
  {
    "name": "ステーションストーリー",
    "address": "東京都台東区根岸1-2-3入谷入口から車で2分鶯谷駅から徒歩3",
    "latitude": null,
    "longitude": null,
    "area": "上野",
    "url": "https://happyhotel.jp/hotels/543592"
  },
  {
    "name": "HOTEL ちゃくれん",
    "address": "東京都台東区東上野3-36-5上野入口から車で2分稲荷町駅から徒歩3",
    "latitude": null,
    "longitude": null,
    "area": "上野",
    "url": "https://happyhotel.jp/hotels/25900887"
  },
  {
    "name": "日光",
    "address": "東京都台東区根岸1-3-11入谷入口から車で2分鶯谷駅から徒歩2",
    "latitude": null,
    "longitude": null,
    "area": "上野",
    "url": "https://happyhotel.jp/hotels/543598"
  },
  {
    "name": "ホテルプティバリ池袋店（タワー館＆リゾート館）",
    "address": "東京都豊島区池袋2-12-11",
    "latitude": null,
    "longitude": null,
    "area": "池袋",
    "url": "https://happyhotel.jp/hotels/25900724"
  },
  {
    "name": "ホテルバリアンリゾートフォレスト池袋西口店",
    "address": "東京都豊島区池袋2-36-10",
    "latitude": null,
    "longitude": null,
    "area": "池袋",
    "url": "https://happyhotel.jp/hotels/25901163"
  },
  {
    "name": "ホテル チャリチョコ",
    "address": "東京都豊島区池袋2-54-4",
    "latitude": null,
    "longitude": null,
    "area": "池袋",
    "url": "https://happyhotel.jp/hotels/543906"
  },
  {
    "name": "ホテル クイーン 池袋",
    "address": "東京都豊島区池袋1-4-6",
    "latitude": null,
    "longitude": null,
    "area": "池袋",
    "url": "https://happyhotel.jp/hotels/543888"
  },
  {
    "name": "ホテル パークサイド 池袋",
    "address": "東京都豊島区東池袋1-15-9",
    "latitude": null,
    "longitude": null,
    "area": "池袋",
    "url": "https://happyhotel.jp/hotels/543917"
  },
  {
    "name": "ホテル マリンブルー",
    "address": "東京都豊島区西池袋1-2-1",
    "latitude": null,
    "longitude": null,
    "area": "池袋",
    "url": "https://happyhotel.jp/hotels/543852"
  },
  {
    "name": "ホテル バリバリ 池袋",
    "address": "東京都豊島区池袋2-12-4",
    "latitude": null,
    "longitude": null,
    "area": "池袋",
    "url": "https://happyhotel.jp/hotels/25900513"
  },
  {
    "name": "アトランタ ホテル 池袋",
    "address": "東京都豊島区池袋2-41-2",
    "latitude": null,
    "longitude": null,
    "area": "池袋",
    "url": "https://happyhotel.jp/hotels/543867"
  },
  {
    "name": "HOTEL AROMA",
    "address": "東京都豊島区池袋2-64-7",
    "latitude": null,
    "longitude": null,
    "area": "池袋",
    "url": "https://happyhotel.jp/hotels/543912"
  },
  {
    "name": "X",
    "address": "東京都豊島区池袋1-3-16",
    "latitude": null,
    "longitude": null,
    "area": "池袋",
    "url": "https://happyhotel.jp/hotels/25900682"
  },
  {
    "name": "RAMSES SEVEN【ラムセスグループ】",
    "address": "東京都豊島区南池袋2-23-3",
    "latitude": null,
    "longitude": null,
    "area": "池袋",
    "url": "https://happyhotel.jp/hotels/543932"
  },
  {
    "name": "RAMSES CLUB【ラムセスグループ】",
    "address": "東京都豊島区東池袋1-38-6",
    "latitude": null,
    "longitude": null,
    "area": "池袋",
    "url": "https://happyhotel.jp/hotels/540289"
  },
  {
    "name": "HOTEL LOTUS 池袋店（ホテル ロータス）【Best Delight Group】",
    "address": "東京都豊島区池袋1-3-14",
    "latitude": null,
    "longitude": null,
    "area": "池袋",
    "url": "https://happyhotel.jp/hotels/540265"
  },
  {
    "name": "VARKIN ANNEX",
    "address": "東京都豊島区池袋1-2-2",
    "latitude": null,
    "longitude": null,
    "area": "池袋",
    "url": "https://happyhotel.jp/hotels/25900564"
  },
  {
    "name": "HOTEL ZEBRA",
    "address": "東京都豊島区東池袋1-37-1",
    "latitude": null,
    "longitude": null,
    "area": "池袋",
    "url": "https://happyhotel.jp/hotels/5400412"
  },
  {
    "name": "ホテル サード 池袋",
    "address": "東京都豊島区池袋1-4-5",
    "latitude": null,
    "longitude": null,
    "area": "池袋",
    "url": "https://happyhotel.jp/hotels/25901045"
  },
  {
    "name": "ホテル Fooo",
    "address": "東京都豊島区南池袋2-28-2",
    "latitude": null,
    "longitude": null,
    "area": "池袋",
    "url": "https://happyhotel.jp/hotels/543935"
  },
  {
    "name": "ホテル WILL池袋",
    "address": "東京都豊島区池袋1-7-31",
    "latitude": null,
    "longitude": null,
    "area": "池袋",
    "url": "https://happyhotel.jp/hotels/540272"
  },
  {
    "name": "HOTEL CHOCOLAT",
    "address": "東京都豊島区東池袋1-37-9",
    "latitude": null,
    "longitude": null,
    "area": "池袋",
    "url": "https://happyhotel.jp/hotels/543923"
  },
  {
    "name": "ホテル 艶",
    "address": "東京都豊島区池袋2-12-12",
    "latitude": null,
    "longitude": null,
    "area": "池袋",
    "url": "https://happyhotel.jp/hotels/540276"
  },
  {
    "name": "スイーツホテル池袋【Best Delight Group】",
    "address": "東京都豊島区池袋1-3-13",
    "latitude": null,
    "longitude": null,
    "area": "池袋",
    "url": "https://happyhotel.jp/hotels/25900584"
  },
  {
    "name": "Premium Resort ホテル ガネーシャ",
    "address": "東京都豊島区池袋1-3-3",
    "latitude": null,
    "longitude": null,
    "area": "池袋",
    "url": "https://happyhotel.jp/hotels/543880"
  },
  {
    "name": "VARKIN 池袋西口店",
    "address": "東京都豊島区池袋2-16-19",
    "latitude": null,
    "longitude": null,
    "area": "池袋",
    "url": "https://happyhotel.jp/hotels/540278"
  },
  {
    "name": "AROMA BARU",
    "address": "東京都豊島区池袋1-3-11",
    "latitude": null,
    "longitude": null,
    "area": "池袋",
    "url": "https://happyhotel.jp/hotels/1100007"
  },
  {
    "name": "LINDEN池袋",
    "address": "東京都豊島区西池袋2-38-8",
    "latitude": null,
    "longitude": null,
    "area": "池袋",
    "url": "https://happyhotel.jp/hotels/540292"
  },
  {
    "name": "ホテル スカイロード",
    "address": "東京都豊島区池袋1-7-2",
    "latitude": null,
    "longitude": null,
    "area": "池袋",
    "url": "https://happyhotel.jp/hotels/540270"
  },
  {
    "name": "RAMSES CLASSIC【ラムセスグループ】",
    "address": "東京都豊島区池袋1-1-15",
    "latitude": null,
    "longitude": null,
    "area": "池袋",
    "url": "https://happyhotel.jp/hotels/540261"
  },
  {
    "name": "プルミエ",
    "address": "東京都豊島区池袋2-46-6",
    "latitude": null,
    "longitude": null,
    "area": "池袋",
    "url": "https://happyhotel.jp/hotels/25900804"
  },
  {
    "name": "kocona",
    "address": "東京都豊島区池袋2-63-8",
    "latitude": null,
    "longitude": null,
    "area": "池袋",
    "url": "https://happyhotel.jp/hotels/543910"
  },
  {
    "name": "HOTEL SWEET PARK",
    "address": "東京都豊島区池袋1-2-12",
    "latitude": null,
    "longitude": null,
    "area": "池袋",
    "url": "https://happyhotel.jp/hotels/540262"
  },
  {
    "name": "DESIGN HOTEL IROHA 六本木【スリースターグループ】",
    "address": "東京都港区六本木7-20-7",
    "latitude": null,
    "longitude": null,
    "area": "港区",
    "url": "https://happyhotel.jp/hotels/25901019"
  },
  {
    "name": "HOTEL Azabu",
    "address": "東京都港区西麻布1-3-10",
    "latitude": null,
    "longitude": null,
    "area": "港区",
    "url": "https://happyhotel.jp/hotels/541386"
  },
  {
    "name": "HOTEL roppongi",
    "address": "東京都港区六本木7-19-4",
    "latitude": null,
    "longitude": null,
    "area": "港区",
    "url": "https://happyhotel.jp/hotels/25900552"
  },
  {
    "name": "HOTEL CHANTILLY【ホテル シャンティ赤坂】",
    "address": "東京都港区赤坂2-16-15",
    "latitude": null,
    "longitude": null,
    "area": "港区",
    "url": "https://happyhotel.jp/hotels/543309"
  },
  {
    "name": "HOTEL KARUTA 赤坂",
    "address": "東京都港区赤坂2-13-16",
    "latitude": null,
    "longitude": null,
    "area": "港区",
    "url": "https://happyhotel.jp/hotels/25901170"
  },
  {
    "name": "六本木プラザホテル",
    "address": "東京都港区六本木7-15-13 六本木ダイヤハイツ6Ｆ",
    "latitude": null,
    "longitude": null,
    "area": "港区",
    "url": "https://happyhotel.jp/hotels/25900758"
  },
  {
    "name": "ALPHA-IN",
    "address": "東京都港区東麻布2-8-3飯倉入口から車で2分麻布十番駅から徒歩6",
    "latitude": null,
    "longitude": null,
    "area": "港区",
    "url": "https://happyhotel.jp/hotels/25900761"
  },
  {
    "name": "HOTEL LUXE EBISU",
    "address": "東京都渋谷区恵比寿南1-8-6",
    "latitude": null,
    "longitude": null,
    "area": "港区",
    "url": "https://happyhotel.jp/hotels/541285"
  },
  {
    "name": "HEART HOTEL",
    "address": "東京都渋谷区恵比寿南1-9-12",
    "latitude": null,
    "longitude": null,
    "area": "港区",
    "url": "https://happyhotel.jp/hotels/541351"
  },
  {
    "name": "HOTEL 1.10.1",
    "address": "東京都渋谷区恵比寿南1-10-1目黒入口から車で3分恵比寿駅から徒歩3",
    "latitude": null,
    "longitude": null,
    "area": "港区",
    "url": "https://happyhotel.jp/hotels/540080"
  },
  {
    "name": "ホテル 二番館PLUS",
    "address": "神奈川県横浜市神奈川区鶴屋町2-9-31",
    "latitude": null,
    "longitude": null,
    "area": "横浜",
    "url": "https://happyhotel.jp/hotels/540463"
  },
  {
    "name": "ホテル サラサ",
    "address": "神奈川県横浜市西区北幸2-2-12",
    "latitude": null,
    "longitude": null,
    "area": "横浜",
    "url": "https://happyhotel.jp/hotels/540438"
  },
  {
    "name": "北欧",
    "address": "神奈川県横浜市西区北幸2-4-1",
    "latitude": null,
    "longitude": null,
    "area": "横浜",
    "url": "https://happyhotel.jp/hotels/741600"
  },
  {
    "name": "ホテル八重洲",
    "address": "神奈川県横浜市西区北幸2-2-10",
    "latitude": null,
    "longitude": null,
    "area": "横浜",
    "url": "https://happyhotel.jp/hotels/540437"
  },
  {
    "name": "HOTEL ZAFIRO RESORT",
    "address": "神奈川県横浜市西区南幸2-3-4",
    "latitude": null,
    "longitude": null,
    "area": "横浜",
    "url": "https://happyhotel.jp/hotels/540434"
  },
  {
    "name": "プラージュ",
    "address": "神奈川県横浜市神奈川区鶴屋町2-27-5",
    "latitude": null,
    "longitude": null,
    "area": "横浜",
    "url": "https://happyhotel.jp/hotels/741590"
  },
  {
    "name": "HOTEL VIGADO",
    "address": "神奈川県横浜市西区南幸2-10-1",
    "latitude": null,
    "longitude": null,
    "area": "横浜",
    "url": "https://happyhotel.jp/hotels/741597"
  },
  {
    "name": "エンゼル",
    "address": "神奈川県横浜市西区北幸2-4-6",
    "latitude": null,
    "longitude": null,
    "area": "横浜",
    "url": "https://happyhotel.jp/hotels/540435"
  },
  {
    "name": "リビエラ",
    "address": "神奈川県横浜市西区北幸2-1-6",
    "latitude": null,
    "longitude": null,
    "area": "横浜",
    "url": "https://happyhotel.jp/hotels/741601"
  },
  {
    "name": "ホテル ルスタイル",
    "address": "神奈川県横浜市神奈川区鶴屋町2-9-27",
    "latitude": null,
    "longitude": null,
    "area": "横浜",
    "url": "https://happyhotel.jp/hotels/741591"
  },
  {
    "name": "マイアミ",
    "address": "神奈川県横浜市西区北幸町2-3-1",
    "latitude": null,
    "longitude": null,
    "area": "横浜",
    "url": "https://happyhotel.jp/hotels/540436"
  },
  {
    "name": "HOTEL Belta",
    "address": "神奈川県横浜市西区南幸2-4-2",
    "latitude": null,
    "longitude": null,
    "area": "横浜",
    "url": "https://happyhotel.jp/hotels/21100068"
  }
]